{
"type": "FeatureCollection",
"name": "noleggio_bici_forlì",
"crs": { "type": "name", "properties": { "name": "urn:ogc:def:crs:OGC:1.3:CRS84" } },
"features": [
{ "type": "Feature", "properties": { "full_id": "n6752586304", "osm_id": "6752586304", "osm_type": "node", "amenity": "bicycle_rental", "ref": "11", "operator": "Mi muovo in bici", "name": "Campus Universitario II", "capacity": "10", "bicycle_rental": "docking_station", "addr:street": "Viale Filippo Corridoni", "addr:city": "Forlì" }, "geometry": { "type": "Point", "coordinates": [ 12.0443669, 44.2177231 ] } },
{ "type": "Feature", "properties": { "full_id": "n6771501118", "osm_id": "6771501118", "osm_type": "node", "amenity": "bicycle_rental", "ref": "9", "operator": "Mi muovo in bici", "name": "Campus Universitario I", "capacity": "8", "bicycle_rental": "docking_station", "addr:street": "Piazzale Sante Solieri", "addr:city": "Forlì" }, "geometry": { "type": "Point", "coordinates": [ 12.0427165, 44.2192452 ] } },
{ "type": "Feature", "properties": { "full_id": "n6771501124", "osm_id": "6771501124", "osm_type": "node", "amenity": "bicycle_rental", "ref": "2", "operator": "Mi muovo in bici", "name": "Vittoria", "capacity": "8", "bicycle_rental": "docking_station", "addr:street": "Piazzale della Vittoria", "addr:city": "Forlì" }, "geometry": { "type": "Point", "coordinates": [ 12.0501582, 44.2177174 ] } },
{ "type": "Feature", "properties": { "full_id": "n6771501125", "osm_id": "6771501125", "osm_type": "node", "amenity": "bicycle_rental", "ref": "3", "operator": "Mi muovo in bici", "name": "Vittorio Veneto", "capacity": "13", "bicycle_rental": "docking_station", "addr:street": "Piazzale della Vittoria", "addr:city": "Forlì" }, "geometry": { "type": "Point", "coordinates": [ 12.0421471, 44.2279322 ] } },
{ "type": "Feature", "properties": { "full_id": "n6771501126", "osm_id": "6771501126", "osm_type": "node", "amenity": "bicycle_rental", "ref": "4", "operator": "Mi muovo in bici", "name": "Piazza Saffi", "capacity": "28", "bicycle_rental": "docking_station", "addr:street": "Piazza Aurelio Saffi", "addr:city": "Forlì" }, "geometry": { "type": "Point", "coordinates": [ 12.041611, 44.2234592 ] } },
{ "type": "Feature", "properties": { "full_id": "n6771501127", "osm_id": "6771501127", "osm_type": "node", "amenity": "bicycle_rental", "ref": "5", "operator": "Mi muovo in bici", "name": "San Domenico", "capacity": "14", "bicycle_rental": null, "addr:street": "Piazza Guido da Montefeltro", "addr:city": "Forlì" }, "geometry": { "type": "Point", "coordinates": [ 12.036199, 44.222001 ] } },
{ "type": "Feature", "properties": { "full_id": "n6771501128", "osm_id": "6771501128", "osm_type": "node", "amenity": "bicycle_rental", "ref": "6", "operator": "Mi muovo in bici", "name": "Park dell'Argine", "capacity": "21", "bicycle_rental": null, "addr:street": "Viale Livio Salinatore", "addr:city": "Forlì" }, "geometry": { "type": "Point", "coordinates": [ 12.0328899, 44.2188672 ] } },
{ "type": "Feature", "properties": { "full_id": "n6771501129", "osm_id": "6771501129", "osm_type": "node", "amenity": "bicycle_rental", "ref": "7", "operator": "Mi muovo in bici", "name": "Park Schiavonia", "capacity": "6", "bicycle_rental": null, "addr:street": "Piazzale Porta Schiavonia", "addr:city": "Forlì" }, "geometry": { "type": "Point", "coordinates": [ 12.0282829, 44.226198 ] } },
{ "type": "Feature", "properties": { "full_id": "n6771501130", "osm_id": "6771501130", "osm_type": "node", "amenity": "bicycle_rental", "ref": "8", "operator": "Mi muovo in bici", "name": "Ospedale Morgagni Pierantoni", "capacity": "6", "bicycle_rental": null, "addr:street": null, "addr:city": "Forlì" }, "geometry": { "type": "Point", "coordinates": [ 12.0200521, 44.2069099 ] } },
{ "type": "Feature", "properties": { "full_id": "n6771501131", "osm_id": "6771501131", "osm_type": "node", "amenity": "bicycle_rental", "ref": "10", "operator": "Mi muovo in bici", "name": "Park Oriani", "capacity": "7", "bicycle_rental": "docking_station", "addr:street": "Viale Alfredo Oriani", "addr:city": "Forlì" }, "geometry": { "type": "Point", "coordinates": [ 12.0491213, 44.2210904 ] } }
]
}
